% ref pos   : 40.001476247 116.330235736   84.5220
%  GPST            latitude(deg) longitude(deg)  height(m)   Q  ns   sdn(m)   sde(m)   sdu(m)  sdne(m)  sdeu(m)  sdun(m) age(s)  ratio    vn(m/s)    ve(m/s)    vu(m/s)      sdvn     sdve     sdvu    sdvne    sdveu    sdvun
2333 547417.00000   39.999886224  116.327572006    41.0553   2  22   0.4614   0.3309   1.1868   0.0720  -0.1758  -0.6571   0.00    2.9   -0.02129   -0.01540    0.07897  10.00000 10.00000 10.00000  0.00000  0.00000  0.00000
2333 547418.00000   39.999885956  116.327566226    41.6423   1  22   0.0066   0.0048   0.0204   0.0018   0.0054   0.0042   0.00    3.2    0.00818    0.00494   -0.02618   4.47214  4.47214  4.47218  0.00104 -0.00291 -0.01123
2333 547419.00000   39.999885940  116.327566224    41.6428   1  22   0.0060   0.0044   0.0180   0.0015   0.0043  -0.0016   0.00    3.2   -0.00516   -0.00114    0.00405   1.62972  1.62970  0.74032  0.00198 -0.00472 -0.01759
2333 547420.00000   39.999885936  116.327566214    41.6442   1  22   0.0057   0.0041   0.0167   0.0014   0.0036  -0.0036   0.00    3.2    0.00244   -0.00095    0.00048   1.19274  1.19269  0.52832  0.00263 -0.00633 -0.02367
2333 547421.00000   39.999885951  116.327566223    41.6424   1  22   0.0055   0.0040   0.0159   0.0013   0.0031  -0.0044   0.00    3.2    0.00111    0.00238   -0.00383   0.98573  0.98563  0.43401  0.00315 -0.00763 -0.02854
2333 547422.00000   39.999885960  116.327566240    41.6440   1  22   0.0054   0.0039   0.0153   0.0012   0.0028  -0.0048   0.00    3.2    0.00061    0.00107    0.00658   0.85903  0.85888  0.37823  0.00358 -0.00870 -0.03257
2333 547423.00000   39.999885959  116.327566225    41.6430   1  22   0.0053   0.0038   0.0149   0.0011   0.0025  -0.0051   0.00    9.4   -0.00095   -0.00350   -0.00663   0.77133  0.77113  0.34069  0.00395 -0.00963 -0.03607
2333 547424.00000   39.999885957  116.327566242    41.6429   1  22   0.0052   0.0038   0.0145   0.0011   0.0022  -0.0053   0.00    9.6    0.00053    0.00566    0.00603   0.70603  0.70577  0.31350  0.00428 -0.01045 -0.03919
2333 547425.00000   39.999885954  116.327566222    41.6426   1  22   0.0051   0.0037   0.0143   0.0011   0.0020  -0.0055   0.00    9.8   -0.00126   -0.00816   -0.00569   0.65499  0.65467  0.29285  0.00458 -0.01120 -0.04203
2333 547426.00000   39.999885940  116.327566247    41.6455   1  22   0.0051   0.0037   0.0140   0.0010   0.0018  -0.0056   0.00    9.8   -0.00184    0.01144    0.01142   0.61369  0.61330  0.27664  0.00485 -0.01189 -0.04465
2333 547427.00000   39.999885951  116.327566240    41.6445   1  22   0.0051   0.0036   0.0139   0.0010   0.0017  -0.0057   0.00    9.9    0.00389   -0.01124   -0.01081   0.57939  0.57893  0.26363  0.00509 -0.01253 -0.04708
2333 547428.00000   39.999885944  116.327566232    41.6438   1  22   0.0050   0.0036   0.0137   0.0010   0.0015  -0.0058   0.00   10.0   -0.00529    0.00858    0.00761   0.55032  0.54979  0.25299  0.00532 -0.01313 -0.04935
2333 547429.00000   39.999885955  116.327566224    41.6414   1  22   0.0050   0.0036   0.0136   0.0010   0.0014  -0.0058   0.00    9.9    0.00732   -0.00905   -0.01105   0.52528  0.52468  0.24418  0.00552 -0.01369 -0.05149
2333 547430.00000   39.999885950  116.327566220    41.6411   1  22   0.0050   0.0036   0.0135   0.0009   0.0012  -0.0059   0.00   10.0   -0.00809    0.00754    0.00920   0.50342  0.50274  0.23680  0.00572 -0.01422 -0.05350
2333 547431.00000   39.999885949  116.327566235    41.6425   1  22   0.0049   0.0036   0.0134   0.0009   0.0011  -0.0060   0.00   10.0    0.00686   -0.00435   -0.00619   0.48413  0.48337  0.23057  0.00589 -0.01471 -0.05539
2333 547432.00000   39.999885959  116.327566240    41.6400   1  22   0.0049   0.0036   0.0133   0.0009   0.0010  -0.0060   0.00   10.0   -0.00418    0.00469    0.00005   0.46694  0.46611  0.22527  0.00605 -0.01518 -0.05719
2333 547433.00000   39.999885975  116.327566225    41.6373   1  22   0.0049   0.0035   0.0132   0.0009   0.0009  -0.0060   0.00   10.0    0.00749   -0.00696   -0.00508   0.45151  0.45060  0.22074  0.00620 -0.01562 -0.05889
2333 547434.00000   39.999885965  116.327566222    41.6404   1  22   0.0049   0.0035   0.0132   0.0009   0.0007  -0.0061   0.00    9.9   -0.00917    0.00639    0.01177   0.43755  0.43656  0.21685  0.00634 -0.01604 -0.06051
2333 547435.00000   39.999885963  116.327566238    41.6385   1  22   0.0049   0.0035   0.0131   0.0009   0.0006  -0.0061   0.00    9.9    0.00807   -0.00320   -0.01452   0.42485  0.42378  0.21350  0.00647 -0.01644 -0.06205
2333 547436.00000   39.999885963  116.327566227    41.6359   1  22   0.0049   0.0035   0.0130   0.0009   0.0005  -0.0061   0.00   10.0   -0.00755    0.00116    0.00874   0.41323  0.41209  0.21060  0.00658 -0.01681 -0.06351
2333 547437.00000   39.999885979  116.327566239    41.6349   1  22   0.0049   0.0035   0.0130   0.0009   0.0003  -0.0061   0.00    9.9    0.01061    0.00123   -0.00866   0.40256  0.40133  0.20808  0.00669 -0.01717 -0.06490
2333 547438.00000   39.999885965  116.327566241    41.6372   1  22   0.0048   0.0035   0.0129   0.0009  -0.0003  -0.0062   0.00    9.9   -0.01305   -0.00069    0.01345   0.39270  0.39140  0.20590  0.00678 -0.01751 -0.06623
2333 547439.00000   39.999885968  116.327566254    41.6336   1  22   0.0048   0.0035   0.0129   0.0009  -0.0004  -0.0062   0.00    9.9    0.01313    0.00292   -0.01937   0.38357  0.38219  0.20400  0.00687 -0.01783 -0.06749
2333 547440.00000   39.999885953  116.327566248    41.6380   1  22   0.0048   0.0035   0.0129   0.0008  -0.0005  -0.0062   0.00    9.9   -0.01578   -0.00381    0.02683   0.37508  0.37362  0.20233  0.00694 -0.01814 -0.06869
2333 547441.00000   39.999885981  116.327566247    41.6350   1  22   0.0048   0.0035   0.0128   0.0008  -0.0006  -0.0062   0.00    9.9    0.02113    0.00351   -0.03060   0.36716  0.36562  0.20088  0.00701 -0.01843 -0.06984
2333 547442.00000   39.999885987  116.327566216    41.6319   1  22   0.0048   0.0035   0.0128   0.0008  -0.0007  -0.0062   0.00    9.9   -0.01865   -0.00862    0.02253   0.35975  0.35814  0.19961  0.00707 -0.01871 -0.07094
2333 547443.00000   39.999885985  116.327566218    41.6318   1  22   0.0048   0.0035   0.0128   0.0008  -0.0008  -0.0062   0.00    9.9    0.01732    0.00860   -0.02061   0.35280  0.35111  0.19850  0.00712 -0.01897 -0.07198
2333 547444.00000   39.999885980  116.327566226    41.6323   1  22   0.0048   0.0035   0.0127   0.0008  -0.0008  -0.0063   0.00    9.9   -0.01759   -0.00689    0.02065   0.34626  0.34450  0.19752  0.00716 -0.01922 -0.07298
2333 547445.00000   39.999885968  116.327566224    41.6322   1  22   0.0048   0.0035   0.0127   0.0008  -0.0009  -0.0063   0.00    9.9    0.01392    0.00637   -0.01891   0.34010  0.33827  0.19667  0.00719 -0.01946 -0.07393
2333 547446.00000   39.999885972  116.327566226    41.6321   1  22   0.0048   0.0035   0.0127   0.0008  -0.0009  -0.0063   0.00    9.8   -0.01232   -0.00575    0.01737   0.33429  0.33239  0.19591  0.00722 -0.01969 -0.07484
2333 547447.00000   39.999885984  116.327566241    41.6305   1  22   0.0048   0.0034   0.0126   0.0008  -0.0009  -0.0063   0.00    9.9    0.01457    0.00785   -0.01927   0.32879  0.32682  0.19525  0.00724 -0.01990 -0.07571
2333 547448.00000   39.999885974  116.327566222    41.6319   1  22   0.0048   0.0034   0.0126   0.0008  -0.0010  -0.0063   0.00    9.9   -0.01600   -0.01079    0.02101   0.32357  0.32153  0.19467  0.00725 -0.02011 -0.07654
2333 547449.00000   39.999885972  116.327566237    41.6307   1  22   0.0048   0.0034   0.0126   0.0008  -0.0010  -0.0063   0.00    9.9    0.01485    0.01306   -0.02157   0.31862  0.31652  0.19415  0.00726 -0.02030 -0.07733
2333 547450.00000   39.999885977  116.327566236    41.6283   1  22   0.0048   0.0034   0.0126   0.0008  -0.0010  -0.0063   0.00    9.9   -0.01306   -0.01294    0.01586   0.31391  0.31174  0.19370  0.00726 -0.02049 -0.07809
2333 547451.00000   39.999885976  116.327566241    41.6309   1  22   0.0048   0.0034   0.0126   0.0008  -0.0010  -0.0063   0.00    9.8    0.01227    0.01328   -0.00964   0.30942  0.30720  0.19330  0.00725 -0.02066 -0.07881
2333 547452.00000   39.999885975  116.327566237    41.6285   1  22   0.0048   0.0034   0.0125   0.0008  -0.0011  -0.0063   0.00    9.8   -0.01181   -0.01355    0.00485   0.30515  0.30286  0.19294  0.00724 -0.02083 -0.07950
2333 547453.00000   39.999885974  116.327566241    41.6328   1  22   0.0048   0.0034   0.0125   0.0008  -0.0011  -0.0063   0.00    9.8    0.01132    0.01401    0.00439   0.30106  0.29871  0.19263  0.00722 -0.02099 -0.08016
2333 547454.00000   39.999885964  116.327566244    41.6296   1  22   0.0048   0.0034   0.0125   0.0008  -0.0011  -0.0063   0.00    9.9   -0.01335   -0.01329   -0.01024   0.29716  0.29475  0.19235  0.00719 -0.02114 -0.08079
2333 547455.00000   39.999885966  116.327566229    41.6376   1  22   0.0048   0.0034   0.0125   0.0008  -0.0011  -0.0063   0.00    9.8    0.01365    0.01037    0.02566   0.29342  0.29096  0.19211  0.00716 -0.02128 -0.08140
2333 547456.00000   39.999885967  116.327566238    41.6323   1  22   0.0047   0.0034   0.0125   0.0008  -0.0011  -0.0064   0.00    9.8   -0.01333   -0.00877   -0.03496   0.28984  0.28732  0.19189  0.00712 -0.02142 -0.08198
2333 547457.00000   39.999885969  116.327566258    41.6335   1  22   0.0047   0.0034   0.0125   0.0008  -0.0011  -0.0064   0.00    9.8    0.01381    0.01187    0.03533   0.28640  0.28383  0.19170  0.00708 -0.02155 -0.08253
2333 547458.00000   39.999885984  116.327566247    41.6294   1  22   0.0047   0.0034   0.0125   0.0008  -0.0012  -0.0064   0.00    9.8   -0.01047   -0.01347   -0.04083   0.28310  0.28049  0.19152  0.00703 -0.02167 -0.08306
2333 547459.00000   39.999885972  116.327566253    41.6316   1  22   0.0047   0.0034   0.0124   0.0008  -0.0012  -0.0064   0.00    9.9    0.00799    0.01422    0.04271   0.27993  0.27727  0.19137  0.00698 -0.02179 -0.08357
2333 547460.00000   39.999885972  116.327566244    41.6303   1  22   0.0047   0.0034   0.0124   0.0008  -0.0012  -0.0064   0.00    9.9   -0.00823   -0.01545   -0.04259   0.27688  0.27417  0.19123  0.00692 -0.02190 -0.08406
2333 547461.00000   39.999885971  116.327566257    41.6329   1  22   0.0047   0.0034   0.0124   0.0008  -0.0012  -0.0064   0.00    9.9    0.00839    0.01723    0.04540   0.27395  0.27119  0.19111  0.00686 -0.02201 -0.08453
2333 547462.00000   39.999885984  116.327566252    41.6318   1  22   0.0047   0.0034   0.0124   0.0008  -0.0012  -0.0064   0.00    9.9   -0.00582   -0.01767   -0.04465   0.27112  0.26832  0.19100  0.00679 -0.02211 -0.08497
2333 547463.00000   39.999885979  116.327566259    41.6264   1  22   0.0047   0.0034   0.0124   0.0008  -0.0012  -0.0064   0.00    9.9    0.00527    0.01853    0.03160   0.26839  0.26555  0.19090  0.00671 -0.02221 -0.08540
2333 547464.00000   39.999885954  116.327566251    41.6327   1  22   0.0047   0.0034   0.0124   0.0008  -0.0012  -0.0064   0.00    9.9   -0.01107   -0.01944   -0.01706   0.26576  0.26287  0.19082  0.00663 -0.02230 -0.08582
2333 547465.00000   39.999885953  116.327566238    41.6365   1  22   0.0047   0.0034   0.0124   0.0007  -0.0012  -0.0064   0.00    9.9    0.01090    0.01673    0.02360   0.26322  0.26029  0.19074  0.00655 -0.02239 -0.08621
2333 547466.00000   39.999885957  116.327566250    41.6395   1  22   0.0047   0.0034   0.0124   0.0007  -0.0012  -0.0064   0.00   10.0   -0.01024   -0.01425   -0.01648   0.26076  0.25780  0.19067  0.00646 -0.02247 -0.08659
2333 547467.00000   39.999885965  116.327566245    41.6341   1  22   0.0047   0.0034   0.0124   0.0007  -0.0012  -0.0064   0.00   10.0    0.01203    0.01324    0.00487   0.25839  0.25539  0.19060  0.00636 -0.02255 -0.08695
2333 547468.00000   39.999885966  116.327566255    41.6339   1  22   0.0047   0.0034   0.0123   0.0007  -0.0013  -0.0064   0.00   10.0   -0.01163   -0.01140   -0.00490   0.25609  0.25306  0.19054  0.00626 -0.02262 -0.08730
2333 547469.00000   39.999885965  116.327566252    41.6334   1  22   0.0047   0.0034   0.0123   0.0007  -0.0013  -0.0064   0.00   10.0    0.01122    0.01067    0.00338   0.25386  0.25081  0.19049  0.00616 -0.02269 -0.08764
2333 547470.00000   39.999885959  116.327566267    41.6330   1  22   0.0047   0.0034   0.0123   0.0007  -0.0013  -0.0064   0.00   10.0   -0.01252   -0.00785   -0.00383   0.25171  0.24862  0.19044  0.00605 -0.02276 -0.08796
2333 547471.00000   39.999885958  116.327566256    41.6373   1  22   0.0047   0.0034   0.0123   0.0007  -0.0013  -0.0064   0.00   10.0    0.01209    0.00576    0.01217   0.24962  0.24651  0.19040  0.00593 -0.02282 -0.08828
2333 547472.00000   39.999885959  116.327566249    41.6345   1  22   0.0047   0.0034   0.0123   0.0007  -0.0013  -0.0064   0.00   10.0   -0.01185   -0.00688   -0.01695   0.24760  0.24446  0.19036  0.00581 -0.02288 -0.08857
2333 547473.00000   39.999885953  116.327566244    41.6363   1  22   0.0047   0.0034   0.0123   0.0007  -0.0013  -0.0064   0.00   10.0    0.01057    0.00580    0.01922   0.24564  0.24247  0.19032  0.00569 -0.02294 -0.08886
2333 547474.00000   39.999885971  116.327566252    41.6326   1  22   0.0047   0.0034   0.0123   0.0007  -0.0013  -0.0064   0.00   10.0   -0.00660   -0.00432   -0.02527   0.24373  0.24054  0.19029  0.00555 -0.02299 -0.08914
2333 547475.00000   39.999885973  116.327566249    41.6311   1  22   0.0047   0.0034   0.0123   0.0007  -0.0013  -0.0064   0.00   10.0    0.00713    0.00381    0.02062   0.24188  0.23866  0.19025  0.00541 -0.02305 -0.08941
2333 547476.00000   39.999885960  116.327566257    41.6363   1  22   0.0047   0.0034   0.0123   0.0007  -0.0013  -0.0064   0.00   10.0   -0.01025   -0.00236   -0.00921   0.24009  0.23685  0.19022  0.00527 -0.02309 -0.08966
2333 547477.00000   39.999885984  116.327566248    41.6282   1  22   0.0047   0.0034   0.0123   0.0007  -0.0013  -0.0064   0.00   10.0    0.01534    0.00078   -0.00744   0.23834  0.23508  0.19020  0.00511 -0.02314 -0.08991
2333 547478.00000   39.999885980  116.327566245    41.6306   1  22   0.0047   0.0034   0.0123   0.0007  -0.0013  -0.0064   0.00   10.0   -0.01597   -0.00132    0.01177   0.23665  0.23336  0.19017  0.00495 -0.02319 -0.09015
2333 547479.00000   39.999885982  116.327566241    41.6335   1  22   0.0047   0.0034   0.0123   0.0007  -0.0013  -0.0064   0.00   10.0    0.01591    0.00071   -0.00530   0.23499  0.23169  0.19015  0.00478 -0.02323 -0.09038
2333 547480.00000   39.999885974  116.327566249    41.6299   1  22   0.0047   0.0034   0.0123   0.0007  -0.0013  -0.0064   0.00   10.1   -0.01742    0.00061   -0.00229   0.23339  0.23007  0.19013  0.00460 -0.02327 -0.09061
2333 547481.00000   39.999885963  116.327566256    41.6333   1  22   0.0047   0.0034   0.0123   0.0007  -0.0013  -0.0064   0.00   10.1    0.01483    0.00060    0.00865   0.23183  0.22849  0.19010  0.00441 -0.02330 -0.09082
2333 547482.00000   39.999885976  116.327566268    41.6319   1  22   0.0047   0.0034   0.0122   0.0007  -0.0013  -0.0064   0.00   10.1   -0.01185    0.00130   -0.01101   0.23030  0.22696  0.19008  0.00421 -0.02334 -0.09103
2333 547483.00000   39.999885975  116.327566268    41.6340   1  22   0.0047   0.0034   0.0122   0.0007  -0.0013  -0.0064   0.00   10.1    0.01167   -0.00122    0.01490   0.22882  0.22546  0.19007  0.00400 -0.02337 -0.09123
2333 547484.00000   39.999885965  116.327566262    41.6331   1  22   0.0047   0.0034   0.0122   0.0007  -0.0013  -0.0064   0.00   10.1   -0.01394    0.00023   -0.01608   0.22738  0.22401  0.19005  0.00377 -0.02340 -0.09142
2333 547485.00000   39.999885973  116.327566251    41.6379   1  22   0.0047   0.0034   0.0122   0.0007  -0.0013  -0.0064   0.00   10.1    0.01549   -0.00214    0.02474   0.22597  0.22259  0.19003  0.00353 -0.02343 -0.09161
2333 547486.00000   39.999885974  116.327566255    41.6343   1  22   0.0047   0.0034   0.0122   0.0007  -0.0013  -0.0064   0.00   10.1   -0.01537    0.00276   -0.03050   0.22460  0.22121  0.19001  0.00326 -0.02346 -0.09179
2333 547487.00000   39.999885980  116.327566252    41.6251   1  22   0.0047   0.0034   0.0122   0.0007  -0.0013  -0.0064   0.00   10.1    0.01669   -0.00326    0.01059   0.22326  0.21986  0.19000  0.00297 -0.02349 -0.09197
2333 547488.00000   39.999885989  116.327566275    41.6291   1  22   0.0047   0.0034   0.0122   0.0007  -0.0013  -0.0064   0.00   10.1   -0.01446    0.00719   -0.00177   0.22196  0.21855  0.18998  0.00264 -0.02351 -0.09214
2333 547489.00000   39.999885984  116.327566236    41.6327   1  22   0.0047   0.0034   0.0122   0.0007  -0.0013  -0.0064   0.00   10.1    0.01320   -0.01375    0.00891   0.22069  0.21727  0.18997  0.00225 -0.02354 -0.09230
2333 547490.00000   39.999885986  116.327566262    41.6266   1  22   0.0047   0.0034   0.0122   0.0007  -0.0013  -0.0064   0.00   10.2   -0.01278    0.01794   -0.02042   0.21944  0.21602  0.18995  0.00179 -0.02356 -0.09246
2333 547491.00000   39.999885989  116.327566267    41.6270   1  22   0.0047   0.0034   0.0122   0.0007  -0.0013  -0.0064   0.00   10.2    0.01349   -0.01675    0.02013   0.21823  0.21480  0.18994  0.00115 -0.02358 -0.09261
2333 547492.00000   39.999885974  116.327566269    41.6307   1  22   0.0047   0.0034   0.0122   0.0007  -0.0013  -0.0064   0.00   10.2   -0.01680    0.01678   -0.01140   0.21705  0.21361  0.18992 -0.00076 -0.02360 -0.09276
2333 547493.00000   39.999885978  116.327566267    41.6288   1  22   0.0047   0.0034   0.0122   0.0007  -0.0013  -0.0064   0.00   10.2    0.01751   -0.01684    0.00703   0.21589  0.21245  0.18991 -0.00158 -0.02361 -0.09291
2333 547494.00000   39.999885972  116.327566269    41.6300   1  22   0.0047   0.0034   0.0122   0.0007  -0.0014  -0.0064   0.00   10.2   -0.01864    0.01697   -0.00416   0.21476  0.21132  0.18990 -0.00211 -0.02363 -0.09305
2333 547495.00000   39.999885989  116.327566277    41.6315   1  22   0.0047   0.0034   0.0122   0.0007  -0.0014  -0.0064   0.00   10.3    0.02200   -0.01536    0.00692   0.21366  0.21021  0.18989 -0.00252 -0.02365 -0.09318
2333 547496.00000   39.999885974  116.327566260    41.6307   1  22   0.0047   0.0034   0.0122   0.0007  -0.0014  -0.0064   0.00   10.3   -0.02498    0.01222   -0.00812   0.21258  0.20913  0.18987 -0.00288 -0.02366 -0.09331
2333 547497.00000   39.999885985  116.327566264    41.6290   1  22   0.0047   0.0034   0.0122   0.0007  -0.0014  -0.0064   0.00   10.3    0.02704   -0.01133    0.00445   0.21152  0.20808  0.18986 -0.00320 -0.02367 -0.09344
2333 547498.00000   39.999885972  116.327566239    41.6310   1  22   0.0047   0.0034   0.0122   0.0007  -0.0014  -0.0064   0.00   10.3   -0.02960    0.00683   -0.00031   0.21049  0.20705  0.18985 -0.00350 -0.02369 -0.09356
2333 547499.00000   39.999885967  116.327566249    41.6302   1  22   0.0047   0.0034   0.0122   0.0007  -0.0014  -0.0064   0.00   10.3    0.02813   -0.00506   -0.00112   0.20948  0.20604  0.18984 -0.00377 -0.02370 -0.09368
2333 547500.00000   39.999885979  116.327566277    41.6295   1  22   0.0047   0.0034   0.0122   0.0007  -0.0014  -0.0064   0.00   10.3   -0.02495    0.00967   -0.00035   0.20850  0.20506  0.18983 -0.00403 -0.02371 -0.09380
2333 547501.00000   39.999885972  116.327566263    41.6319   1  22   0.0047   0.0034   0.0122   0.0007  -0.0014  -0.0064   0.00   10.3    0.02297   -0.01180    0.00515   0.20753  0.20409  0.18981 -0.00427 -0.02372 -0.09391
2333 547502.00000   39.999885985  116.327566249    41.6264   1  22   0.0047   0.0034   0.0121   0.0007  -0.0014  -0.0064   0.00   10.4   -0.01989    0.00929   -0.01559   0.20659  0.20315  0.18980 -0.00450 -0.02372 -0.09402
2333 547503.00000   39.999885967  116.327566234    41.6284   1  22   0.0047   0.0034   0.0121   0.0007  -0.0014  -0.0064   0.00   10.4    0.01581   -0.01176    0.01874   0.20566  0.20223  0.18979 -0.00471 -0.02373 -0.09413
2333 547504.00000   39.999885948  116.327566222    41.6358   1  22   0.0047   0.0034   0.0121   0.0007  -0.0014  -0.0064   0.00   10.4   -0.02009    0.00952   -0.00318   0.20476  0.20133  0.18978 -0.00492 -0.02374 -0.09424
2333 547505.00000   39.999885959  116.327566250    41.6293   1  22   0.0047   0.0034   0.0121   0.0007  -0.0014  -0.0064   0.00   10.4    0.02226   -0.00469   -0.01003   0.20387  0.20045  0.18977 -0.00513 -0.02374 -0.09434
2333 547506.00000   39.999885955  116.327566215    41.6304   1  22   0.0047   0.0034   0.0121   0.0007  -0.0014  -0.0064   0.00   10.4   -0.02263   -0.00129    0.01210   0.20300  0.19959  0.18976 -0.00532 -0.02375 -0.09443
2333 547507.00000   39.999885956  116.327566239    41.6346   1  22   0.0047   0.0034   0.0121   0.0007  -0.0014  -0.0064   0.00   10.4    0.02255    0.00536   -0.00302   0.20215  0.19875  0.18975 -0.00551 -0.02375 -0.09453
2333 547508.00000   39.999885955  116.327566221    41.6360   1  22   0.0047   0.0034   0.0121   0.0007  -0.0014  -0.0064   0.00   10.5   -0.02238   -0.00830    0.00543   0.20132  0.19792  0.18974 -0.00569 -0.02376 -0.09462
2333 547509.00000   39.999885958  116.327566232    41.6363   1  22   0.0047   0.0034   0.0121   0.0007  -0.0014  -0.0064   0.00   10.5    0.02267    0.01003   -0.00454   0.20050  0.19711  0.18973 -0.00587 -0.02376 -0.09471
2333 547510.00000   39.999885952  116.327566220    41.6328   1  22   0.0047   0.0034   0.0121   0.0006  -0.0014  -0.0064   0.00   10.5   -0.02369   -0.01195   -0.00260   0.19970  0.19632  0.18972 -0.00604 -0.02376 -0.09480
2333 547511.00000   39.999885942  116.327566239    41.6297   1  22   0.0047   0.0034   0.0121   0.0006  -0.0014  -0.0064   0.00   10.5    0.02129    0.01495   -0.00342   0.19892  0.19555  0.18971 -0.00621 -0.02376 -0.09489
2333 547512.00000   39.999885909  116.327566232    41.6305   1  22   0.0047   0.0034   0.0121   0.0006  -0.0014  -0.0065   0.00   10.6   -0.02844   -0.01602    0.00481   0.19815  0.19479  0.18970 -0.00637 -0.02376 -0.09497
2333 547513.00000   39.999885925  116.327566215    41.6349   1  22   0.0047   0.0034   0.0121   0.0006  -0.0014  -0.0065   0.00   10.6    0.03172    0.01292    0.00437   0.19740  0.19405  0.18969 -0.00653 -0.02376 -0.09505
2333 547514.00000   39.999885928  116.327566197    41.6285   1  22   0.0047   0.0034   0.0121   0.0006  -0.0014  -0.0065   0.00   10.6   -0.03077   -0.01582   -0.01706   0.19666  0.19332  0.18968 -0.00668 -0.02376 -0.09513
2333 547515.00000   39.999885915  116.327566216    41.6288   1  22   0.0047   0.0034   0.0121   0.0006  -0.0014  -0.0065   0.00   10.6    0.02769    0.01880    0.01701   0.19594  0.19261  0.18967 -0.00684 -0.02376 -0.09521
2333 547516.00000   39.999885936  116.327566224    41.6287   1  22   0.0047   0.0034   0.0121   0.0006  -0.0014  -0.0065   0.00   10.6   -0.02305   -0.01735   -0.01640   0.19523  0.19191  0.18966 -0.00699 -0.02376 -0.09528
2333 547517.00000   39.999885938  116.327566253    41.6281   1  22   0.0047   0.0034   0.0121   0.0006  -0.0014  -0.0065   0.00   10.6    0.02364    0.02218    0.01455   0.19453  0.19123  0.18965 -0.00713 -0.02376 -0.09535
2333 547518.00000   39.999885911  116.327566227    41.6312   1  22   0.0047   0.0034   0.0121   0.0006  -0.0014  -0.0065   0.00   10.6   -0.02957   -0.02641   -0.00766   0.19385  0.19056  0.18964 -0.00728 -0.02375 -0.09543
2333 547519.00000   39.999885935  116.327566231    41.6274   1  22   0.0046   0.0034   0.0121   0.0006  -0.0014  -0.0065   0.00   10.7    0.03478    0.02677   -0.00002   0.19318  0.18990  0.18963 -0.00742 -0.02375 -0.09549
2333 547520.00000   39.999885916  116.327566221    41.6345   1  22   0.0046   0.0034   0.0121   0.0006  -0.0014  -0.0065   0.00   10.7   -0.03865   -0.02816    0.01415   0.19252  0.18926  0.18962 -0.00755 -0.02375 -0.09556
2333 547521.00000   39.999885928  116.327566210    41.6299   1  22   0.0046   0.0034   0.0121   0.0006  -0.0014  -0.0065   0.00   10.7    0.04074    0.02585   -0.02234   0.19188  0.18863  0.18961 -0.00769 -0.02374 -0.09563
2333 547522.00000   39.999885928  116.327566086    41.6283   1  22   0.0046   0.0034   0.0121   0.0006  -0.0014  -0.0065   0.00   10.7   -0.04005   -0.04654    0.01807   0.19125  0.18801  0.18960 -0.00782 -0.02374 -0.09569
2333 547523.00000   39.999885921  116.327565797    41.6308   1  22   0.0046   0.0034   0.0121   0.0006  -0.0014  -0.0065   0.00   10.7    0.03787   -0.00320   -0.01183   0.19062  0.18741  0.18959 -0.00795 -0.02373 -0.09575
2333 547524.00000   39.999885908  116.327565752    41.6310   1  22   0.0046   0.0034   0.0121   0.0006  -0.0014  -0.0065   0.00   10.7   -0.04019   -0.00444    0.01159   0.19002  0.18681  0.18958 -0.00808 -0.02373 -0.09582
2333 547525.00000   39.999885915  116.327565752    41.6259   1  22   0.0046   0.0034   0.0121   0.0006  -0.0014  -0.0065   0.00   10.8    0.04121    0.00435   -0.02069   0.18942  0.18623  0.18957 -0.00821 -0.02372 -0.09587
2333 547526.00000   39.999885907  116.327565755    41.6300   1  22   0.0046   0.0034   0.0121   0.0006  -0.0014  -0.0065   0.00   10.8   -0.04217   -0.00377    0.02777   0.18883  0.18566  0.18956 -0.00833 -0.02371 -0.09593
2333 547527.00000   39.999885914  116.327565768    41.6276   1  22   0.0047   0.0034   0.0121   0.0006  -0.0014  -0.0064   0.00   10.8    0.04283    0.00596   -0.03062   0.18825  0.18510  0.18957 -0.00845 -0.02370 -0.09598
2333 547528.00000   39.999885847  116.327565684    41.6248   1  22   0.0047   0.0034   0.0121   0.0006  -0.0013  -0.0064   0.00   10.8   -0.05459   -0.02061    0.03128   0.18769  0.18455  0.18959 -0.00855 -0.02367 -0.09601
2333 547529.00000   39.999885931  116.327565738    41.6353   1  18   0.0048   0.0038   0.0130   0.0007  -0.0025  -0.0061   0.00   10.8    0.07203    0.02951   -0.00817   0.18715  0.18404  0.18985 -0.00862 -0.02401 -0.09597
2333 547530.00000   39.999885928  116.327565778    41.6223   1  20   0.0048   0.0037   0.0130   0.0008  -0.0022  -0.0061   0.00   10.8   -0.07233   -0.01888   -0.02418   0.18668  0.18356  0.19054 -0.00838 -0.02425 -0.09572
2333 547531.00000   39.999885920  116.327565760    41.6262   1  22   0.0048   0.0038   0.0131   0.0006  -0.0026  -0.0061   0.00   10.8    0.07016    0.01577    0.03114   0.18622  0.18311  0.19130 -0.00825 -0.02479 -0.09542
2333 547532.00000   39.999885930  116.327565749    41.6212   1  22   0.0048   0.0036   0.0128   0.0007  -0.0020  -0.0062   0.00   10.8   -0.06949   -0.01805   -0.04300   0.18573  0.18259  0.19148 -0.00812 -0.02441 -0.09535
2333 547533.00000   39.999885924  116.327565761    41.6285   1  22   0.0047   0.0035   0.0125   0.0007  -0.0018  -0.0063   0.00   10.8    0.06875    0.02042    0.05299   0.18522  0.18208  0.19122 -0.00828 -0.02426 -0.09541
2333 547534.00000   39.999885935  116.327565753    41.6237   1  22   0.0047   0.0035   0.0126   0.0006  -0.0018  -0.0063   0.00   10.8   -0.06661   -0.02238   -0.05896   0.18473  0.18159  0.19111 -0.00842 -0.02417 -0.09544
2333 547535.00000   39.999885924  116.327565739    41.6290   1  22   0.0047   0.0035   0.0124   0.0006  -0.0017  -0.0064   0.00   10.8    0.06400    0.01982    0.06652   0.18424  0.18110  0.19092 -0.00855 -0.02406 -0.09548
2333 547536.00000   39.999885911  116.327565497    41.6204   1  22   0.0047   0.0034   0.0123   0.0006  -0.0016  -0.0064   0.00   10.8   -0.06783   -0.06132   -0.08170   0.18376  0.18063  0.19072 -0.00869 -0.02400 -0.09556
2333 547537.00000   39.999885930  116.327565168    41.6231   1  22   0.0047   0.0034   0.0122   0.0006  -0.0016  -0.0064   0.00   10.8    0.07281    0.00504    0.08239   0.18328  0.18016  0.19056 -0.00883 -0.02395 -0.09563
2333 547538.00000   39.999885887  116.327564829    41.6222   1  22   0.0047   0.0034   0.0122   0.0006  -0.0016  -0.0064   0.00   10.9   -0.08244   -0.06282   -0.07858   0.18282  0.17970  0.19042 -0.00897 -0.02390 -0.09570
2333 547539.00000   39.999885886  116.327564677    41.6246   1  22   0.0047   0.0034   0.0122   0.0006  -0.0015  -0.0064   0.00   10.9    0.08285    0.03672    0.07922   0.18236  0.17925  0.19032 -0.00910 -0.02386 -0.09576
2333 547540.00000   39.999885865  116.327564547    41.6273   1  22   0.0047   0.0034   0.0122   0.0006  -0.0015  -0.0064   0.00   10.9   -0.08861   -0.05866   -0.07201   0.18191  0.17881  0.19020 -0.00923 -0.02382 -0.09584
2333 547541.00000   39.999885858  116.327564402    41.6255   1  22   0.0047   0.0034   0.0122   0.0006  -0.0015  -0.0064   0.00   10.9    0.08766    0.03364    0.06508   0.18146  0.17838  0.19010 -0.00935 -0.02378 -0.09592
2333 547542.00000   39.999885856  116.327564160    41.6240   1  22   0.0046   0.0034   0.0121   0.0006  -0.0015  -0.0064   0.00   10.9   -0.08747   -0.07465   -0.06193   0.18102  0.17795  0.19001 -0.00947 -0.02375 -0.09599
2333 547543.00000   39.999885841  116.327563867    41.6197   1  22   0.0046   0.0034   0.0121   0.0006  -0.0015  -0.0064   0.00   10.9    0.08449    0.02424    0.05021   0.18059  0.17754  0.18993 -0.00959 -0.02372 -0.09606
2333 547544.00000   39.999885814  116.327563562    41.6255   1  22   0.0046   0.0034   0.0121   0.0006  -0.0015  -0.0064   0.00   10.9   -0.09014   -0.07605   -0.03527   0.18017  0.17713  0.18986 -0.00971 -0.02369 -0.09613
2333 547545.00000   39.999885783  116.327563234    41.6265   1  22   0.0046   0.0034   0.0121   0.0006  -0.0015  -0.0064   0.00   10.9    0.08284    0.01951    0.03472   0.17975  0.17672  0.18980 -0.00982 -0.02366 -0.09620
2333 547546.00000   39.999885758  116.327562878    41.6285   1  22   0.0046   0.0034   0.0121   0.0006  -0.0015  -0.0064   0.00   10.9   -0.08803   -0.08004   -0.02882   0.17934  0.17633  0.18974 -0.00994 -0.02363 -0.09626
2333 547547.00000   39.999885731  116.327562360    41.6247   1  22   0.0046   0.0034   0.0121   0.0006  -0.0014  -0.0064   0.00   11.0    0.08169   -0.00885    0.01974   0.17894  0.17594  0.18969 -0.01005 -0.02361 -0.09632
2333 547548.00000   39.999885466  116.327557332    41.6070   1  22   0.0046   0.0034   0.0121   0.0006  -0.0014  -0.0064   0.00   11.0   -0.14091   -0.84860   -0.05518   0.17854  0.17556  0.18965 -0.01015 -0.02358 -0.09639
2333 547549.00000   39.999884323  116.327535502    41.5656   1  22   0.0046   0.0034   0.0123   0.0006  -0.0015  -0.0065   0.00   11.2   -0.11236   -2.87655   -0.02830   0.17815  0.17519  0.18966 -0.01026 -0.02358 -0.09645
2333 547550.00000   39.999882887  116.327510441    41.5378   1  20   0.0047   0.0034   0.0124   0.0006  -0.0015  -0.0064   0.00   11.3   -0.20679   -1.41312   -0.02733   0.17776  0.17482  0.18986 -0.01036 -0.02362 -0.09652
2333 547551.00000   39.999881359  116.327483955    41.5134   1  20   0.0047   0.0034   0.0124   0.0006  -0.0015  -0.0064   0.00   11.6   -0.13265   -3.10235   -0.02067   0.17740  0.17446  0.19013 -0.01047 -0.02368 -0.09651
2333 547552.00000   39.999879488  116.327446273    41.4782   1  22   0.0047   0.0034   0.0124   0.0006  -0.0015  -0.0064   0.00   11.7   -0.28288   -3.33707   -0.05055   0.17704  0.17411  0.19037 -0.01059 -0.02374 -0.09650
2333 547553.00000   39.999877655  116.327392250    41.4234   1  22   0.0047   0.0034   0.0124   0.0006  -0.0015  -0.0064   0.00   11.9   -0.12477   -5.88378   -0.05897   0.17669  0.17376  0.19058 -0.01070 -0.02378 -0.09649
2333 547554.00000   39.999876029  116.327323079    41.3546   1  22   0.0046   0.0034   0.0122   0.0006  -0.0015  -0.0064   0.00   12.1   -0.23556   -5.93643   -0.07870   0.17632  0.17341  0.19039 -0.01081 -0.02372 -0.09653
2333 547555.00000   39.999874311  116.327234327    41.2987   1  22   0.0047   0.0034   0.0122   0.0006  -0.0014  -0.0064   0.00   12.3   -0.14594   -9.21353   -0.03346   0.17597  0.17308  0.19027 -0.01092 -0.02368 -0.09655
2333 547556.00000   39.999871976  116.327126513    41.2191   1  23   0.0046   0.0034   0.0121   0.0006  -0.0014  -0.0064   0.00   12.5   -0.37275   -9.20827   -0.12424   0.17562  0.17275  0.19013 -0.01102 -0.02363 -0.09660
2333 547557.00000   39.999868835  116.327013762    41.1762   1  23   0.0046   0.0034   0.0121   0.0006  -0.0014  -0.0064   0.00   12.7   -0.32431  -10.04619    0.03532   0.17527  0.17242  0.19002 -0.01112 -0.02359 -0.09664
2333 547558.00000   39.999864813  116.326902583    41.1568   1  23   0.0046   0.0033   0.0120   0.0001  -0.0008  -0.0064   0.00   12.9   -0.56901   -8.94697   -0.06886   0.17491  0.17206  0.18953 -0.01168 -0.02247 -0.09650
2333 547559.00000   39.999861489  116.326792993    41.1375   1  23   0.0046   0.0032   0.0117  -0.0006   0.0010  -0.0063   0.00   13.1   -0.17013   -9.76560    0.02913   0.17454  0.17167  0.18873 -0.01251 -0.02054 -0.09624
2333 547560.00000   39.999859315  116.326682254    41.1070   1  23   0.0046   0.0034   0.0121   0.0006  -0.0014  -0.0064   0.00   13.3   -0.31283   -9.15116   -0.08791   0.17420  0.17132  0.18832 -0.01297 -0.01940 -0.09615
2333 547561.00000   39.999857133  116.326566772    41.1025   1  23   0.0046   0.0034   0.0121   0.0006  -0.0014  -0.0064   0.00   13.5   -0.17127  -10.56689    0.07509   0.17388  0.17102  0.18841 -0.01292 -0.01967 -0.09627
2333 547562.00000   39.999855246  116.326458484    41.1083   1  23   0.0046   0.0033   0.0117  -0.0005   0.0008  -0.0063   0.00   13.7   -0.24765   -7.93682   -0.06059   0.17353  0.17065  0.18773 -0.01361 -0.01757 -0.09605
2333 547563.00000   39.999854627  116.326377026    41.0992   1  23   0.0046   0.0032   0.0116  -0.0007   0.0012  -0.0062   0.00   13.9    0.11014   -5.97349    0.03862   0.17319  0.17029  0.18717 -0.01418 -0.01555 -0.09589
2333 547564.00000   39.999854604  116.326325858    41.0913   1  23   0.0046   0.0032   0.0115  -0.0007   0.0014  -0.0062   0.00   14.1   -0.11501   -2.76900   -0.05068   0.17286  0.16994  0.18668 -0.01467 -0.01345 -0.09576
2333 547565.00000   39.999854417  116.326299811    41.0797   1  23   0.0045   0.0032   0.0115  -0.0008   0.0015  -0.0062   0.00   14.3    0.07320   -1.67451    0.02583   0.17254  0.16959  0.18626 -0.01510 -0.01118 -0.09565
2333 547566.00000   39.999854130  116.326277289    41.0696   1  23   0.0046   0.0034   0.0120   0.0005  -0.0014  -0.0064   0.00   14.5   -0.13669   -2.16860   -0.04396   0.17224  0.16928  0.18615 -0.01526 -0.01021 -0.09569
2333 547567.00000   39.999853558  116.326251831    41.0591   1  23   0.0046   0.0034   0.0120   0.0005  -0.0014  -0.0064   0.00   14.8    0.00946   -2.18027    0.02189   0.17197  0.16901  0.18650 -0.01504 -0.01155 -0.09591
2333 547568.00000   39.999852305  116.326216198    41.0495   1  23   0.0046   0.0033   0.0117  -0.0005   0.0008  -0.0063   0.00   15.0   -0.28716   -3.90168   -0.03852   0.17166  0.16867  0.18603 -0.01549 -0.00854 -0.09578
2333 547569.00000   39.999849934  116.326170402    41.0386   1  23   0.0046   0.0032   0.0115  -0.0007   0.0012  -0.0062   0.00   15.2   -0.23962   -3.92360    0.01609   0.17135  0.16835  0.18566 -0.01585 -0.00469 -0.09569
2333 547570.00000   39.999846342  116.326112531    41.0348   1  23   0.0045   0.0032   0.0115  -0.0007   0.0014  -0.0062   0.00   15.4   -0.55754   -5.95617   -0.02085   0.17106  0.16803  0.18534 -0.01616  0.00490 -0.09562
2333 547571.00000   39.999841713  116.326042239    41.0227   1  23   0.0045   0.0032   0.0114  -0.0008   0.0015  -0.0062   0.00   15.6   -0.47104   -6.05316   -0.00343   0.17077  0.16771  0.18507 -0.01644  0.00814 -0.09557
2333 547572.00000   39.999837769  116.325970852    41.0041   1  23   0.0045   0.0032   0.0114  -0.0008   0.0015  -0.0062   0.00   15.8   -0.40485   -6.13907   -0.03325   0.17048  0.16740  0.18482 -0.01669  0.01027 -0.09553
2333 547573.00000   39.999837568  116.325906714    40.9896   1  23   0.0045   0.0032   0.0114  -0.0008   0.0016  -0.0062   0.00   16.1    0.35896   -4.81814    0.00442   0.17020  0.16710  0.18461 -0.01691  0.01192 -0.09550
2333 547574.00000   39.999847756  116.325858530    40.9973   1  23   0.0045   0.0032   0.0114  -0.0008   0.0016  -0.0062   0.00   16.3    1.90097   -3.41195    0.01405   0.16993  0.16680  0.18442 -0.01710  0.01327 -0.09548
2333 547575.00000   39.999868139  116.325827000    40.9775   1  23   0.0045   0.0032   0.0113  -0.0009   0.0016  -0.0062   0.00   16.5    2.62724   -1.97311   -0.05187   0.16966  0.16650  0.18425 -0.01728  0.01442 -0.09547
2333 547576.00000   39.999886853  116.325802821    40.9853   1  23   0.0045   0.0032   0.0113  -0.0009   0.0016  -0.0062   0.00   16.7    1.53339   -2.15291    0.06404   0.16940  0.16621  0.18409 -0.01744  0.01541 -0.09547
2333 547577.00000   39.999898154  116.325775194    40.9818   1  23   0.0045   0.0032   0.0113  -0.0009   0.0017  -0.0062   0.00   16.9    0.97395   -2.56483   -0.06633   0.16914  0.16593  0.18396 -0.01759  0.01629 -0.09547
2333 547578.00000   39.999897699  116.325743923    40.9819   1  23   0.0045   0.0031   0.0113  -0.0009   0.0017  -0.0062   0.00   17.2   -1.07063   -2.77665    0.06234   0.16888  0.16565  0.18384 -0.01771  0.01707 -0.09547
2333 547579.00000   39.999884660  116.325715334    40.9689   1  23   0.0045   0.0031   0.0113  -0.0009   0.0017  -0.0062   0.00   17.4   -1.82877   -2.10778   -0.08325   0.16863  0.16537  0.18373 -0.01783  0.01777 -0.09548
2333 547580.00000   39.999861365  116.325699961    40.9550   1  23   0.0046   0.0034   0.0120   0.0005  -0.0013  -0.0064   0.00   17.6   -3.34132   -0.52005    0.05174   0.16839  0.16512  0.18384 -0.01779  0.01775 -0.09558
2333 547581.00000   39.999834417  116.325703052    40.9421   1  23   0.0046   0.0033   0.0118  -0.0003  -0.0006  -0.0063   0.00   17.9   -2.65112    1.04534   -0.06219   0.16816  0.16488  0.18400 -0.01773  0.01763 -0.09569
2333 547582.00000   39.999811761  116.325727002    40.9309   1  23   0.0046   0.0034   0.0120   0.0005  -0.0013  -0.0064   0.00   18.1   -2.37831    3.04377    0.03691   0.16794  0.16465  0.18425 -0.01760  0.01717 -0.09584
2333 547583.00000   39.999800696  116.325768146    40.9353   1  23   0.0046   0.0032   0.0116  -0.0005   0.0008  -0.0063   0.00   18.3   -0.08209    3.98846   -0.03256   0.16769  0.16438  0.18402 -0.01778  0.01811 -0.09579
2333 547584.00000   39.999799212  116.325822310    40.9517   1  23   0.0045   0.0032   0.0115  -0.0007   0.0012  -0.0062   0.00   18.5   -0.24120    5.26129    0.06110   0.16745  0.16412  0.18386 -0.01790  0.01879 -0.09576
2333 547585.00000   39.999801515  116.325891624    40.9668   1  23   0.0046   0.0034   0.0120   0.0005  -0.0013  -0.0064   0.00   18.7    0.74935    6.57677   -0.02714   0.16724  0.16390  0.18409 -0.01775  0.01830 -0.09590
2333 547586.00000   39.999805425  116.325972175    40.9841   1  23   0.0046   0.0032   0.0116  -0.0006   0.0009  -0.0063   0.00   18.9    0.12348    7.18219    0.05727   0.16700  0.16365  0.18388 -0.01790  0.01912 -0.09585
2333 547587.00000   39.999809373  116.326060871    41.0038   1  23   0.0045   0.0032   0.0115  -0.0007   0.0013  -0.0062   0.00   19.1    0.75000    7.96580   -0.01427   0.16677  0.16340  0.18373 -0.01800  0.01971 -0.09582
2333 547588.00000   39.999812755  116.326152973    41.0156   1  23   0.0045   0.0032   0.0114  -0.0008   0.0014  -0.0062   0.00   19.3    0.00474    7.76674    0.03397   0.16655  0.16316  0.18362 -0.01808  0.02020 -0.09581
2333 547589.00000   39.999814827  116.326243519    41.0309   1  23   0.0045   0.0032   0.0114  -0.0008   0.0015  -0.0062   0.00   19.5    0.45226    7.69732   -0.00092   0.16633  0.16292  0.18353 -0.01815  0.02064 -0.09581
2333 547590.00000   39.999815734  116.326330725    41.0562   1  23   0.0045   0.0032   0.0114  -0.0008   0.0016  -0.0062   0.00   19.7   -0.24771    7.19751    0.04925   0.16611  0.16269  0.18344 -0.01821  0.02104 -0.09581
2333 547591.00000   39.999815980  116.326415959    41.0796   1  23   0.0045   0.0032   0.0113  -0.0008   0.0016  -0.0062   0.00   20.0    0.29925    7.35823    0.00009   0.16590  0.16246  0.18337 -0.01826  0.02141 -0.09582
2333 547592.00000   39.999816013  116.326499533    41.0724   1  23   0.0045   0.0032   0.0113  -0.0009   0.0016  -0.0062   0.00   20.2   -0.28927    6.91647   -0.01515   0.16569  0.16223  0.18331 -0.01831  0.02174 -0.09582
2333 547593.00000   39.999815875  116.326581429    41.0907   1  23   0.0045   0.0032   0.0113  -0.0009   0.0016  -0.0062   0.00   20.4    0.25644    7.06931    0.05181   0.16548  0.16201  0.18325 -0.01834  0.02205 -0.09583
2333 547594.00000   39.999816033  116.326659483    41.0879   1  23   0.0045   0.0032   0.0113  -0.0009   0.0017  -0.0062   0.00   20.6   -0.21955    6.26383   -0.05636   0.16528  0.16179  0.18320 -0.01838  0.02233 -0.09584
2333 547595.00000   39.999817580  116.326729289    41.0897   1  23   0.0045   0.0031   0.0113  -0.0009   0.0017  -0.0062   0.00   20.9    0.56118    5.65781    0.05817   0.16508  0.16157  0.18315 -0.01840  0.02260 -0.09585
2333 547596.00000   39.999821490  116.326793947    41.1070   1  23   0.0045   0.0031   0.0113  -0.0009   0.0017  -0.0062   0.00   21.1    0.30894    5.38496   -0.02223   0.16488  0.16136  0.18311 -0.01842  0.02284 -0.09586
2333 547597.00000   39.999830179  116.326849052    41.1236   1  23   0.0045   0.0031   0.0113  -0.0009   0.0017  -0.0062   0.00   21.3    1.61772    4.02872    0.05447   0.16468  0.16115  0.18307 -0.01844  0.02307 -0.09588
2333 547598.00000   39.999845241  116.326892763    41.1454   1  23   0.0045   0.0031   0.0113  -0.0009   0.0017  -0.0062   0.00   21.5    1.72944    3.43520   -0.00954   0.16449  0.16095  0.18304 -0.01845  0.02328 -0.09589
2333 547599.00000   39.999869320  116.326923204    41.1612   1  23   0.0045   0.0032   0.0115  -0.0006   0.0009  -0.0063   0.00   21.7    3.61424    1.76602    0.04094   0.16431  0.16075  0.18308 -0.01841  0.02330 -0.09594
2333 547600.00000   39.999899777  116.326936043    41.1487   1  23   0.0045   0.0032   0.0115  -0.0006   0.0009  -0.0063   0.00   22.0    3.15381    0.42585   -0.06451   0.16414  0.16059  0.18334 -0.01820  0.02274 -0.09608
2333 547601.00000   39.999931684  116.326934465    41.1279   1  23   0.0045   0.0032   0.0115  -0.0006   0.0009  -0.0063   0.00   22.2    3.92996   -0.69575    0.02174   0.16397  0.16042  0.18357 -0.01800  0.02221 -0.09620
2333 547602.00000   39.999964068  116.326935020    41.1057   1  23   0.0045   0.0032   0.0114  -0.0008   0.0014  -0.0062   0.00   22.5    3.26333    0.78366   -0.05972   0.16378  0.16023  0.18345 -0.01807  0.02257 -0.09617
2333 547603.00000   39.999991343  116.326952159    41.0814   1  23   0.0045   0.0032   0.0113  -0.0008   0.0016  -0.0062   0.00   22.7    2.79380    2.14376    0.00958   0.16359  0.16003  0.18336 -0.01811  0.02285 -0.09615
2333 547604.00000   40.000004278  116.326983932    41.0808   1  23   0.0045   0.0032   0.0113  -0.0009   0.0016  -0.0062   0.00   23.0    0.08364    3.28355   -0.01153   0.16341  0.15984  0.18328 -0.01814  0.02310 -0.09614
2333 547605.00000   40.000001101  116.327018574    41.0941   1  23   0.0045   0.0032   0.0113  -0.0009   0.0016  -0.0062   0.00   23.3   -0.79305    2.63673    0.03946   0.16324  0.15966  0.18322 -0.01816  0.02333 -0.09613
2333 547606.00000   39.999986130  116.327044709    41.1121   1  23   0.0045   0.0031   0.0113  -0.0009   0.0017  -0.0062   0.00   23.6   -2.52964    1.82734   -0.00294   0.16306  0.15948  0.18316 -0.01818  0.02353 -0.09613
2333 547607.00000   39.999968465  116.327058468    41.1590   1  23   0.0045   0.0031   0.0113  -0.0009   0.0017  -0.0062   0.00   23.8   -1.39875    0.52363    0.09727   0.16289  0.15930  0.18311 -0.01820  0.02373 -0.09613
2333 547608.00000   39.999956303  116.327062527    41.1526   1  23   0.0045   0.0031   0.0113  -0.0009   0.0017  -0.0062   0.00   24.0   -1.30073    0.16795   -0.10635   0.16272  0.15912  0.18306 -0.01821  0.02391 -0.09613
2333 547609.00000   39.999948806  116.327063409    41.1472   1  23   0.0045   0.0031   0.0112  -0.0009   0.0017  -0.0061   0.00   24.3   -0.36436   -0.01774    0.09080   0.16255  0.15894  0.18302 -0.01822  0.02408 -0.09613
2333 547610.00000   39.999940180  116.327062855    41.1585   1  23   0.0045   0.0031   0.0112  -0.0009   0.0017  -0.0061   0.00   24.5   -1.54809   -0.07720   -0.06412   0.16239  0.15877  0.18299 -0.01822  0.02423 -0.09613
2333 547611.00000   39.999930279  116.327060746    41.1577   1  23   0.0045   0.0031   0.0112  -0.0009   0.0017  -0.0061   0.00   24.7   -0.65378   -0.28266    0.06045   0.16223  0.15860  0.18295 -0.01823  0.02438 -0.09613
2333 547612.00000   39.999913334  116.327052851    41.1624   1  23   0.0045   0.0031   0.0112  -0.0009   0.0017  -0.0061   0.00   25.0   -3.10275   -1.06434   -0.05010   0.16207  0.15843  0.18292 -0.01823  0.02452 -0.09614
2333 547613.00000   39.999893844  116.327033803    41.1671   1  23   0.0045   0.0031   0.0112  -0.0009   0.0017  -0.0061   0.00   25.3   -1.23359   -2.18808    0.05977   0.16191  0.15827  0.18290 -0.01823  0.02465 -0.09614
2333 547614.00000   39.999878012  116.327000816    41.1563   1  23   0.0045   0.0031   0.0112  -0.0009   0.0018  -0.0061   0.00   25.6   -2.27699   -3.44526   -0.07991   0.16175  0.15811  0.18287 -0.01822  0.02477 -0.09615
2333 547615.00000   39.999871380  116.326961126    41.1445   1  23   0.0045   0.0031   0.0112  -0.0009   0.0018  -0.0061   0.00   25.9    0.79671   -3.33600    0.05568   0.16160  0.15795  0.18285 -0.01822  0.02489 -0.09616
2333 547616.00000   39.999868342  116.326921977    41.1497   1  23   0.0045   0.0031   0.0112  -0.0009   0.0018  -0.0061   0.00   26.2   -1.46101   -3.35034   -0.04500   0.16145  0.15779  0.18283 -0.01821  0.02500 -0.09616
2333 547617.00000   39.999865501  116.326880724    41.1487   1  23   0.0045   0.0031   0.0112  -0.0009   0.0018  -0.0061   0.00   26.5    0.82138   -3.69455    0.04400   0.16130  0.15764  0.18281 -0.01820  0.02510 -0.09617
2333 547618.00000   39.999862478  116.326829154    41.1399   1  23   0.0045   0.0031   0.0112  -0.0009   0.0018  -0.0061   0.00   26.8   -1.48378   -5.11107   -0.06157   0.16116  0.15748  0.18279 -0.01819  0.02520 -0.09618
2333 547619.00000   39.999859432  116.326771598    41.1136   1  23   0.0045   0.0031   0.0112  -0.0009   0.0018  -0.0061   0.00   27.0    0.79848   -4.72239    0.01003   0.16101  0.15733  0.18278 -0.01818  0.02529 -0.09618
2333 547620.00000   39.999856763  116.326715636    41.0989   1  23   0.0045   0.0031   0.0112  -0.0009   0.0018  -0.0061   0.00   27.4   -1.38244   -4.83437   -0.04068   0.16087  0.15719  0.18276 -0.01817  0.02538 -0.09619
2333 547621.00000   39.999854433  116.326661527    41.0905   1  23   0.0045   0.0031   0.0112  -0.0009   0.0018  -0.0061   0.00   27.6    0.85636   -4.40779    0.02543   0.16073  0.15704  0.18275 -0.01816  0.02546 -0.09620
2333 547622.00000   39.999852676  116.326598323    41.0853   1  23   0.0045   0.0031   0.0112  -0.0009   0.0018  -0.0061   0.00   28.0   -1.23786   -6.38196   -0.03651   0.16059  0.15690  0.18273 -0.01814  0.02554 -0.09621
2333 547623.00000   39.999851267  116.326518281    41.0894   1  23   0.0046   0.0034   0.0119   0.0004  -0.0013  -0.0064   0.00   28.3    0.91683   -7.29034    0.04597   0.16046  0.15678  0.18290 -0.01801  0.02523 -0.09629
2333 547624.00000   39.999850306  116.326424206    41.0915   1  23   0.0046   0.0034   0.0119   0.0004  -0.0013  -0.0064   0.00   28.5   -1.12232   -8.77564   -0.04196   0.16036  0.15671  0.18356 -0.01753  0.02375 -0.09658
2333 547625.00000   39.999849195  116.326327853    41.0747   1  23   0.0045   0.0032   0.0115  -0.0006   0.0009  -0.0063   0.00   28.8    0.86798   -7.68542    0.00921   0.16022  0.15656  0.18339 -0.01761  0.02412 -0.09651
2333 547626.00000   39.999847659  116.326232800    41.0436   1  23   0.0045   0.0032   0.0114  -0.0007   0.0013  -0.0062   0.00   29.1   -1.20123   -8.54474   -0.07188   0.16008  0.15643  0.18328 -0.01765  0.02435 -0.09647
2333 547627.00000   39.999845578  116.326139021    41.0310   1  23   0.0046   0.0034   0.0119   0.0004  -0.0013  -0.0064   0.00   29.4    0.73169   -7.47557    0.04703   0.15997  0.15633  0.18354 -0.01744  0.02373 -0.09658
2333 547628.00000   39.999843148  116.326047466    41.0107   1  23   0.0046   0.0034   0.0119   0.0004  -0.0013  -0.0064   0.00   29.7   -1.26404   -8.15747   -0.08632   0.15987  0.15627  0.18412 -0.01698  0.02225 -0.09683
2333 547629.00000   39.999841032  116.325965344    40.9976   1  23   0.0045   0.0032   0.0115  -0.0006   0.0009  -0.0063   0.00   30.0    0.78885   -5.87144    0.05152   0.15973  0.15613  0.18389 -0.01711  0.02275 -0.09674
2333 547630.00000   39.999841789  116.325898214    40.9878   1  23   0.0045   0.0032   0.0114  -0.0007   0.0013  -0.0062   0.00   30.2   -0.61465   -5.58974   -0.06985   0.15959  0.15600  0.18372 -0.01719  0.02309 -0.09667
2333 547631.00000   39.999851720  116.325850351    40.9727   1  23   0.0045   0.0032   0.0113  -0.0008   0.0015  -0.0062   0.00   30.6    2.81038   -2.59106    0.04339   0.15946  0.15587  0.18358 -0.01726  0.02337 -0.09661
2333 547632.00000   39.999868489  116.325818642    40.9620   1  23   0.0045   0.0032   0.0113  -0.0008   0.0015  -0.0062   0.00   31.0    0.92361   -2.81816   -0.06480   0.15933  0.15575  0.18346 -0.01732  0.02362 -0.09657
2333 547633.00000   39.999882523  116.325788206    40.9684   1  23   0.0045   0.0032   0.0113  -0.0009   0.0016  -0.0062   0.00   31.4    2.18729   -2.38167    0.07798   0.15921  0.15562  0.18336 -0.01737  0.02385 -0.09653
2333 547634.00000   39.999885372  116.325756279    40.9588   1  23   0.0045   0.0032   0.0113  -0.0009   0.0016  -0.0062   0.00   31.8   -1.54553   -3.06901   -0.09575   0.15909  0.15550  0.18327 -0.01741  0.02406 -0.09650
2333 547635.00000   39.999876045  116.325729656    40.9536   1  23   0.0045   0.0032   0.0113  -0.0009   0.0017  -0.0062   0.00   32.2   -0.53392   -1.48230    0.08483   0.15897  0.15538  0.18319 -0.01745  0.02426 -0.09648
2333 547636.00000   39.999857719  116.325713725    40.9404   1  23   0.0045   0.0031   0.0112  -0.0009   0.0017  -0.0062   0.00   32.6   -3.52911   -1.23591   -0.10798   0.15885  0.15526  0.18312 -0.01748  0.02444 -0.09645
2333 547637.00000   39.999834993  116.325712659    40.9369   1  23   0.0045   0.0031   0.0112  -0.0009   0.0017  -0.0061   0.00   33.0   -1.52601    1.04979    0.09950   0.15873  0.15515  0.18305 -0.01751  0.02461 -0.09643
2333 547638.00000   39.999812705  116.325730768    40.9229   1  23   0.0045   0.0031   0.0112  -0.0009   0.0017  -0.0061   0.00   33.4   -3.41718    2.04564   -0.12344   0.15862  0.15503  0.18300 -0.01754  0.02477 -0.09642
2333 547639.00000   39.999798671  116.325769982    40.9199   1  23   0.0045   0.0031   0.0112  -0.0009   0.0017  -0.0061   0.00   33.7    0.29105    4.64859    0.11497   0.15850  0.15492  0.18294 -0.01756  0.02491 -0.09641
2333 547640.00000   39.999791906  116.325825800    40.9385   1  23   0.0045   0.0031   0.0112  -0.0009   0.0017  -0.0061   0.00   33.9   -1.78324    4.88908   -0.07528   0.15839  0.15481  0.18290 -0.01758  0.02505 -0.09640
2333 547641.00000   39.999789309  116.325896200    40.9512   1  23   0.0045   0.0031   0.0112  -0.0009   0.0017  -0.0061   0.00   34.2    1.19789    7.13079    0.09922   0.15828  0.15470  0.18286 -0.01759  0.02518 -0.09639
2333 547642.00000   39.999789989  116.325975092    40.9721   1  23   0.0045   0.0031   0.0112  -0.0009   0.0018  -0.0061   0.00   34.6   -1.03754    6.34889   -0.05615   0.15818  0.15459  0.18282 -0.01761  0.02531 -0.09638
2333 547643.00000   39.999792253  116.326053710    40.9804   1  23   0.0045   0.0031   0.0112  -0.0009   0.0018  -0.0061   0.00   34.8    1.53164    7.07537    0.07209   0.15807  0.15448  0.18279 -0.01762  0.02542 -0.09637
2333 547644.00000   39.999795150  116.326131986    40.9834   1  23   0.0045   0.0031   0.0112  -0.0009   0.0018  -0.0061   0.00   35.1   -0.87939    6.29627   -0.06541   0.15797  0.15438  0.18275 -0.01763  0.02553 -0.09637
2333 547645.00000   39.999797611  116.326216609    41.0068   1  23   0.0045   0.0031   0.0112  -0.0009   0.0018  -0.0061   0.00   35.4    1.41780    8.15130    0.11146   0.15786  0.15427  0.18273 -0.01764  0.02564 -0.09637
2333 547646.00000   39.999799299  116.326304817    41.0162   1  23   0.0045   0.0031   0.0112  -0.0009   0.0018  -0.0061   0.00   35.7   -1.03475    6.91951   -0.09032   0.15776  0.15417  0.18270 -0.01764  0.02573 -0.09636
2333 547647.00000   39.999799984  116.326391703    41.0397   1  23   0.0045   0.0031   0.0112  -0.0009   0.0018  -0.0061   0.00   36.1    1.17921    7.91551    0.13475   0.15766  0.15407  0.18268 -0.01765  0.02582 -0.09636
2333 547648.00000   39.999800391  116.326480384    41.0608   1  23   0.0045   0.0031   0.0112  -0.0009   0.0018  -0.0061   0.00   36.4   -1.08173    7.23347   -0.08919   0.15757  0.15397  0.18266 -0.01765  0.02591 -0.09636
2333 547649.00000   39.999802234  116.326568695    41.0706   1  23   0.0045   0.0031   0.0112  -0.0009   0.0018  -0.0061   0.00   36.8    1.48323    7.84661    0.10660   0.15747  0.15387  0.18264 -0.01765  0.02599 -0.09636
2333 547650.00000   39.999806160  116.326655192    41.0709   1  23   0.0045   0.0031   0.0112  -0.0009   0.0018  -0.0061   0.00   37.2   -0.60371    6.92896   -0.10340   0.15737  0.15378  0.18262 -0.01765  0.02607 -0.09636
2333 547651.00000   39.999813338  116.326738351    41.0804   1  23   0.0045   0.0031   0.0112  -0.0009   0.0018  -0.0061   0.00   37.5    2.18966    7.27150    0.12003   0.15728  0.15368  0.18260 -0.01765  0.02615 -0.09636
2333 547652.00000   39.999824236  116.326809607    41.0977   1  23   0.0045   0.0031   0.0112  -0.0010   0.0018  -0.0061   0.00   37.9    0.23840    4.90337   -0.08255   0.15719  0.15359  0.18259 -0.01765  0.02622 -0.09636
2333 547653.00000   39.999840691  116.326864878    41.1201   1  23   0.0045   0.0031   0.0112  -0.0010   0.0018  -0.0061   0.00   38.4    3.40724    4.53247    0.12551   0.15709  0.15350  0.18257 -0.01765  0.02628 -0.09636
2333 547654.00000   39.999863673  116.326902548    41.1487   1  23   0.0045   0.0031   0.0112  -0.0010   0.0018  -0.0061   0.00   38.7    1.70434    1.90553   -0.06572   0.15700  0.15341  0.18256 -0.01764  0.02635 -0.09636
2333 547655.00000   39.999890828  116.326920366    41.1460   1  23   0.0045   0.0031   0.0112  -0.0010   0.0018  -0.0061   0.00   39.1    4.31884    1.13411    0.05911   0.15691  0.15332  0.18255 -0.01764  0.02641 -0.09637
2333 547656.00000   39.999918748  116.326925461    41.1250   1  23   0.0045   0.0031   0.0112  -0.0010   0.0018  -0.0061   0.00   39.4    1.89023   -0.26272   -0.10058   0.15683  0.15323  0.18254 -0.01763  0.02647 -0.09637
2333 547657.00000   39.999945877  116.326930820    41.0898   1  23   0.0045   0.0031   0.0112  -0.0010   0.0018  -0.0061   0.00   39.9    4.12647    1.17274    0.02975   0.15674  0.15314  0.18253 -0.01763  0.02652 -0.09637
2333 547658.00000   39.999967763  116.326947230    41.0858   1  23   0.0045   0.0031   0.0112  -0.0010   0.0018  -0.0061   0.00   40.4    0.74414    1.63171   -0.03869   0.15665  0.15306  0.18252 -0.01762  0.02658 -0.09637
2333 547659.00000   39.999979050  116.326973738    41.0821   1  23   0.0045   0.0031   0.0112  -0.0010   0.0018  -0.0061   0.00   40.9    1.75421    2.89412    0.03292   0.15657  0.15297  0.18251 -0.01761  0.02663 -0.09637
2333 547660.00000   39.999978544  116.327004248    41.0977   1  23   0.0045   0.0031   0.0112  -0.0010   0.0018  -0.0061   0.00   41.3   -1.85785    2.32012   -0.00278   0.15648  0.15289  0.18250 -0.01761  0.02668 -0.09637
2333 547661.00000   39.999965755  116.327032676    41.1095   1  23   0.0045   0.0031   0.0112  -0.0010   0.0018  -0.0061   0.00   41.8   -0.99080    2.53348    0.02892   0.15640  0.15281  0.18249 -0.01760  0.02672 -0.09638
2333 547662.00000   39.999943007  116.327050491    41.1385   1  23   0.0045   0.0031   0.0112  -0.0010   0.0018  -0.0061   0.00   42.2   -4.05320    0.51320    0.02727   0.15632  0.15273  0.18248 -0.01759  0.02677 -0.09638
2333 547663.00000   39.999913584  116.327050423    41.1509   1  23   0.0045   0.0031   0.0111  -0.0010   0.0018  -0.0061   0.00   42.5   -2.48998   -0.52639    0.00126   0.15624  0.15265  0.18247 -0.01758  0.02681 -0.09638
2333 547664.00000   39.999885247  116.327027294    41.1526   1  23   0.0045   0.0031   0.0111  -0.0010   0.0018  -0.0061   0.00   42.9   -3.79698   -3.42041    0.00004   0.15616  0.15257  0.18246 -0.01757  0.02685 -0.09638
2333 547665.00000   39.999864646  116.326987899    41.1475   1  23   0.0045   0.0031   0.0111  -0.0010   0.0018  -0.0061   0.00   43.3   -0.78631   -3.31352   -0.00702   0.15608  0.15249  0.18246 -0.01756  0.02689 -0.09638
2333 547666.00000   39.999849128  116.326934614    41.1216   1  23   0.0045   0.0031   0.0111  -0.0010   0.0018  -0.0061   0.00   43.8   -2.65041   -5.78211   -0.04746   0.15600  0.15242  0.18245 -0.01755  0.02693 -0.09638
2333 547667.00000   39.999839930  116.326868090    41.1163   1  23   0.0045   0.0031   0.0111  -0.0010   0.0018  -0.0061   0.00   44.3    0.59843   -5.58458    0.03867   0.15593  0.15234  0.18244 -0.01754  0.02697 -0.09638
2333 547668.00000   39.999835776  116.326791681    41.0949   1  23   0.0045   0.0031   0.0111  -0.0010   0.0018  -0.0061   0.00   44.8   -1.51135   -7.46145   -0.08213   0.15585  0.15227  0.18243 -0.01753  0.02701 -0.09638
2333 547669.00000   39.999836369  116.326709522    41.0813   1  23   0.0045   0.0031   0.0111  -0.0010   0.0018  -0.0061   0.00   45.3    1.63391   -6.57561    0.05513   0.15578  0.15219  0.18243 -0.01752  0.02704 -0.09639
2333 547670.00000   39.999838513  116.326628231    41.0762   1  23   0.0045   0.0031   0.0111  -0.0010   0.0018  -0.0061   0.00   45.7   -1.14711   -7.30496   -0.06551   0.15570  0.15212  0.18242 -0.01752  0.02708 -0.09639
2333 547671.00000   39.999840889  116.326547663    41.0809   1  23   0.0046   0.0033   0.0118   0.0003  -0.0012  -0.0064   0.00   46.2    1.66491   -6.45801    0.07545   0.15564  0.15207  0.18259 -0.01738  0.02674 -0.09646
2333 547672.00000   39.999842524  116.326461867    41.0783   1  23   0.0046   0.0033   0.0118   0.0003  -0.0012  -0.0064   0.00   46.7   -1.29163   -8.19028   -0.08034   0.15560  0.15208  0.18324 -0.01690  0.02534 -0.09673
2333 547673.00000   39.999843234  116.326374904    41.0682   1  23   0.0045   0.0032   0.0115  -0.0007   0.0010  -0.0062   0.00   47.2    1.43914   -6.66839    0.06109   0.15552  0.15200  0.18308 -0.01699  0.02564 -0.09666
2333 547674.00000   39.999843274  116.326289179    41.0408   1  23   0.0046   0.0033   0.0118   0.0003  -0.0012  -0.0064   0.00   47.6   -1.42047   -7.96730   -0.11504   0.15545  0.15194  0.18310 -0.01695  0.02557 -0.09667
2333 547675.00000   39.999842969  116.326204521    41.0157   1  23   0.0046   0.0033   0.0118   0.0003  -0.0012  -0.0064   0.00   48.1    1.34329   -6.49637    0.06385   0.15542  0.15195  0.18368 -0.01650  0.02418 -0.09690
2333 547676.00000   39.999842074  116.326121000    41.0154   1  23   0.0045   0.0032   0.0115  -0.0007   0.0010  -0.0062   0.00   48.7   -1.53280   -7.76360   -0.06237   0.15533  0.15187  0.18347 -0.01663  0.02458 -0.09681
2333 547677.00000   39.999840929  116.326038561    40.9926   1  23   0.0045   0.0032   0.0114  -0.0008   0.0014  -0.0062   0.00   49.1    1.26849   -6.32104    0.01793   0.15526  0.15181  0.18332 -0.01671  0.02484 -0.09674
2333 547678.00000   39.999840514  116.325960204    40.9860   1  23   0.0045   0.0032   0.0113  -0.0008   0.0015  -0.0062   0.00   49.6   -1.35033   -7.05706   -0.03430   0.15518  0.15174  0.18320 -0.01678  0.02505 -0.09669
2333 547679.00000   39.999843528  116.325895595    40.9765   1  23   0.0045   0.0033   0.0118   0.0003  -0.0012  -0.0064   0.00   50.1    2.00852   -3.98451    0.01811   0.15512  0.15169  0.18325 -0.01673  0.02492 -0.09671
2333 547680.00000   39.999855463  116.325850019    40.9544   1  23   0.0045   0.0033   0.0116  -0.0005   0.0003  -0.0063   0.00   50.6    0.64956   -3.79535   -0.05911   0.15506  0.15165  0.18340 -0.01663  0.02458 -0.09676
2333 547681.00000   39.999874090  116.325818343    40.9655   1  23   0.0045   0.0033   0.0118   0.0003  -0.0012  -0.0064   0.00   51.1    3.47986   -1.61827    0.08125   0.15501  0.15162  0.18363 -0.01646  0.02402 -0.09685
2333 547682.00000   39.999888203  116.325787895    40.9645   1  23   0.0045   0.0032   0.0115  -0.0007   0.0010  -0.0062   0.00   51.6   -0.33432   -3.57422   -0.08228   0.15493  0.15155  0.18342 -0.01659  0.02445 -0.09676
2333 547683.00000   39.999891428  116.325757700    40.9547   1  23   0.0045   0.0032   0.0113  -0.0008   0.0014  -0.0062   0.00   52.1    1.04190   -1.59020    0.06180   0.15486  0.15149  0.18327 -0.01668  0.02473 -0.09670
